{
"keywords":[
	"salsa", "bachata", "kizomba", "cubaine", "cubana", "semba", "samba", "merengue", "tango", "lambazouk", "regueton", "reggaeton", "kuduru", "rock", "Breaks", "Chill Out", "Drum & Bass", "Dubstep", "Electro", "House", "Electro House", "Electronica", "Funk", "R&B", "Hard Dance", "Hardcore", "Hard Techno", "Hip-Hop", "Indie Dance", "Nu Disco", "Minimal", "Open Format", "Progressive House", "Psy-Trance", "Reggae", "Dub", "Tech House", "Techno", "Trance", "psy-france", "Punk rock", "Pop electro", "Electro Funk"
	],
"keywords2":[
	"edinburgh", "new York", "paris", "londres", "los-angeles", "roma", "madrid", "barcelona", "tokyo","buenos-aires", "moscou", "rio-de-janeiro", "singapore", "sao paulo", "montreal", "ottawa", "lyon", "milano", "marseille", "las-vegas", "bangkok", "berlin", "mexico", "shangai", "washington", "ibiza", "le-caire", "athenes", "budapest", "hamburg", "prague", "amsterdam", "brussels", "miami", "aix-en-provence", "toulouse", "san-francisco", "bordeaux", "belgrade"
	],
"coord":[
	{   "city":"Edinburgh",
		"lat":55.953252,
		"lng":-3.188266999999996,
		"country":"UK"
	},
	{
		"city": "New York",
		"lat": 40.7127837,
		"lng":-74.00594130000002,
		"country":"USA"
	},
	{
		"city":"Paris",
		"lat":48.856614,
		"lng":2.3522219000000177,
		"country":"France"
	},
		{
		"city":"Londres",
		"lat":51.5073509,
		"lng":-0.12775829999998223,
		"country":"UK"
	},
		{
		"city":"Los Angeles",
		"lat":34.0522342,
		"lng":-118.2436849,
		"country":"USA"
	},
		{
		"city":"Roma",
		"lat":41.9027835,
		"lng":12.496365500000024,
		"country":"Italia"
	},
		{
		"city":"Madrid",
		"lat":40.4167754,
		"lng":-3.7037901999999576,
		"country":"España"
	},
		{
		"city":"Barcelona",
		"lat":41.3850639,
		"lng":2.1734034999999494,
		"country":"España"
	},
		{
		"city":"Tokyo",
		"lat":35.7090259,
		"lng":139.73199249999993,
		"country":"Japan"
	},
		{
		"city":"Buenos Aires",
		"lat":-34.6036844,
		"lng":-58.381559100000004,
		"country":"Argentina"
	},
		{
		"city":"Moscou",
		"lat":55.755826,
		"lng":37.6173,
		"country":"Russia"
	},
		{
		"city":"Rio de Janeiro",
		"lat":-22.9116324,
		"lng":-43.188286300000016,
		"country":"Brasil"
	},
		{
		"city":"Singapore",
		"lat":1.2800945,
		"lng":103.85094909999998,
		"country":"Singapore"
	},
	{
		"city":"São Paulo",
		"lat":-23.5505199,
		"lng":-46.63330939999997,
		"country":"Brasil"
	},
	{
		"city":"Montréal",
		"lat":45.5016889,
		"lng":-73.56725599999999,
		"country":"Canada"
	},
	{
		"city":"Ottawa",
		"lat":45.4215296,
		"lng":-75.69719309999999,
		"country":"Canada"
	},
	{
		"city":"Lyon",
		"lat":45.764043,
		"lng":4.835658999999964,
		"country":"France"
	},
	{
		"city":"Milano",
		"lat":45.4654219,
		"lng":9.18592430000001,
		"country":"Italia"
	},
	{
		"city":"Marseille",
		"lat":43.296482,
		"lng":5.369779999999992,
		"country":"France"
	},
	{
		"city":"Las Vegas",
		"lat":36.1699412,
		"lng":-115.13982959999998,
		"country":"USA"
	},
	{
		"city":"Bangkok",
		"lat":13.7278,
		"lng":100.5241,
		"country":"Thailand"
	},
	{
		"city":"Berlin",
		"lat":52.52000659999999,
		"lng":13.404953999999975,
		"country":"Deutschland"
	},
	{
		"city":"Mexico",
		"lat":19.4326077,
		"lng":-99.13320799999997,
		"country":"Mexico"
	},
	{
		"city":"Shangai",
		"lat":31.230416,
		"lng":121.473701,
		"country":"China"
	},
	{
		"city":"Washington",
		"lat":38.9071923,
		"lng":-77.03687070000001,
		"country":"USA"
	},
	{
		"city":"Ibiza",
		"lat":38.9067339,
		"lng":1.4205982999999378,
		"country":"España"
	},
	{
		"city":"Le Caire",
		"lat":30.0444196,
		"lng":31.23571160000006,
		"country":"Egypt"
	},
	{
		"city":"Athenes",
		"lat":37.983917,
		"lng":23.729359899999963,
		"country":"Greece"
	},
	{
		"city":"Boston",
		"lat":42.3584865,
		"lng":-71.06009699999998,
		"country":"USA"
	},
	{
		"city":"Frankfurt",
		"lat":50.1109221,
		"lng":8.682126700000026,
		"country":"Germany"
	},
	{
		"city":"Zagreb",
		"lat":45.8150108,
		"lng":15.981919000000062,
		"country":"Croatia"
	},
	{
		"city":"Budapest",
		"lat":47.497912,
		"lng":19.04023499999994,
		"country":"Hungary"
	},
	{
		"city":"Hamburg",
		"lat":53.5510846,
		"lng":9.99368179999999,
		"country":"Deutschland"
	},
	{
		"city":"Prague",
		"lat":50.0755381,
		"lng":14.43780049999998,
		"country":"Czech Republic"
	},
		{
		"city":"Amsterdam",
		"lat":52.3702157,
		"lng":4.895167899999933,
		"country":"Netherlands"
	},
	{
		"city":"Brussels",
		"lat":50.8503396,
		"lng":4.351710300000036,
		"country":"Belgium"
	},
	{
		"city":"Miami",
		"lat":25.7616798,
		"lng":-80.19179020000001,
		"country":"USA"
	},
	{
		"city":"Aix-en-Provence",
		"lat":43.529742,
		"lng":5.4474270000000615,
		"country":"France"
	},
	{
		"city":"Toulouse",
		"lat":43.604652,
		"lng":1.4442090000000007,
		"country":"France"
	},
	{
		"city":"San Francisco",
		"lat":37.7749295,
		"lng":-122.41941550000001,
		"country":"USA"
	},
	{
		"city":"Bordeaux",
		"lat":44.837789,
		"lng":-0.5791799999999512,
		"country":"France"
	},
	{
		"city":"Belgrade",
		"lat":44.786568,
		"lng":20.44892159999995,
		"country":"Serbia"
	}
]
}